No,,name,address,경도,위도,상태
1,300,경기도의료원 포천병원,경기도 포천시 포천로 1648,127.198510077887,37.9026308521511,정좌표
2,301,하남시보건소,경기도 하남시 신장2동 520,127.214653396034,37.5391024830188,정좌표
3,302,화성시보건소,경기도 화성시 향남읍 3.1만세로 1055,126.904541886006,37.1291167358368,정좌표
4,303,원광종합병원,경기도 화성시 화산북로 21,127.008036210736,37.2100623650964,정좌표
5,304,화성중앙종합병원,경기도 화성시 향남읍 발안로 5,126.91080289392,37.1315379284539,정좌표
6,305,한림대학교동탄성심병원,경기도 화성시 큰재봉길 7,127.079949984672,37.2165138259112,정좌표
7,306,화성디에스병원,경기도 화성시 남양읍 시청로160번길 46-13,126.825710280013,37.1992325073445,정좌표
8,307,화성시보건소(동탄글로브월),경기도 화성시 동탄 산단7길 60,127.086563148477,37.1768762839316,정좌표
9,308,영통구보건소,경기도 수원시 영통구 영통동 영통로 396,127.069709899265,37.256881243281,정좌표
10,309,아주대학교병원,경기도 수원시 영통구 월드컵로164,127.04752002094,37.2794471411693,정좌표
11,310,평택시송탄보건소,경기도 평택시 서정동 산 12(서정로 295),127.066039342359,37.0661913096923,정좌표
12,311,박병원,경기도 평택시 송탄로 33,127.057171791105,37.0481253249399,정좌표
13,312,일산동구보건소,경기도 고양시 일산동구 마두동 1010번지,126.775887846665,37.6563870018944,정좌표
14,313,국민건강보험공단일산병원,경기도 고양시 일산동구 일산로100,126.793040376112,37.6454757701823,정좌표
15,314,동국대학교일산불교병원,경기도 고양시 일산동구 동국로 27(식사동),126.807013807595,37.6762882811906,정좌표
16,315,일산복음병원,경기도 고양시 일산동구 고양대로760,126.780327567298,37.6818359820446,정좌표
17,316,수지구보건소,경기도 용인시 수지구 포은대로 435,127.097447177595,37.322221611019,정좌표
18,317,남양주풍양보건소,"경기도 남양주시 진접읍 금곡리 1085, 풍양보건소",127.188892476452,37.7113838548783,정좌표
19,318,남양주한양병원,경기도 남양주시 오남읍 양지로 47-55,127.204568236305,37.6827233389854,정좌표
20,319,현대병원,경기도 남양주시 진접읍 봉현로 21,127.179903097897,37.7154370146664,정좌표
21,320,연천군보건의료원,경기도 연천군 전곡읍 은대리 577-36,127.06064258994,38.0232990881639,정좌표
22,321,강릉시보건소,"강원도 강릉시 내곡동 413 강릉시보건소, 가동 강릉시보건소",128.882790077706,37.7428171970512,정좌표
23,322,강릉아산병원,강원도 강릉시 방동길 38,128.857831128174,37.8184039540009,정좌표
24,323,강릉동인병원,강원도 강릉시 강릉대로419번길 42,128.90788254491,37.7745786448962,정좌표
25,324,강릉고려병원,강원도 강릉시 옥가로 30,128.899865159872,37.7590136509302,정좌표
26,325,강릉의료원,강원도 강릉시 경강로 2007,128.889261340552,37.7490867565685,정좌표
27,326,고성군보건소,강원도 고성군 간성읍 수성로 30,128.472138792654,38.3776148120663,정좌표
28,327,동해시보건소,강원도 동해시 천곡동 840 보건소 동해시보건소,129.117045386881,37.5228304435284,정좌표
29,328,의료법인 동해동인병원,강원도 동해시 하평로 26,129.107803458472,37.5302454033274,정좌표
30,329,근로복지공단 동해병원,강원도 동해시 하평로 11,129.105302253328,37.5316944307395,정좌표
31,330,삼척시보건소,강원도 삼척시 남양동 347-4,129.172337765826,37.4437726879262,정좌표
32,331,강원도 삼척의료원,강원도 삼척시 오십천로 418,129.163142864079,37.4399635771648,정좌표
33,332,속초시보건소,강원도 속초시 동해대로 4229(생활체육관 주차장 내),128.577058432577,38.1966340500397,정좌표
34,333,강원도속초의료원,강원도 속초시 영랑호반길 3,128.587918246318,38.2160633463648,정좌표
35,334,속초보광병원,강원도 속초시 중앙로 11,128.578358160118,38.1980370366966,정좌표
36,335,양구군보건소,강원도 양구군 양구읍 하리 34-5 양구군보건소,127.989964812644,38.1099227024967,정좌표
37,336,양구성심병원,강원도 양구군 양구읍 중심로 160,127.991208239749,38.1047184087243,정좌표
38,337,양양군보건소,강원도 양양군 양양읍 연창리 203-5 양양군보건소 양양군보건소,128.627366986085,38.0778822860285,정좌표
39,338,영월군보건소,강원도 영월군 영월읍 하송로 44 영월군보건소,128.463622820734,37.184376435596,정좌표
40,339,영월의료원,강원도 영월군 영월읍 중앙1로 59 영월의료원,128.465233298087,37.1867688382045,정좌표
41,340,원주시보건소,강원도 원주시 일산동 211,127.946782903658,37.3515745548653,정좌표
42,341,연세대학교 원주세브란스기독병원,강원도 원주시 일산로 20,127.946725279463,37.3491203088766,정좌표
43,342,원주의료원,강원도 원주시 서원대로 387,127.949008530361,37.3331989095214,정좌표
44,343,인제군보건소,강원도 인제군 인제읍 인제로140번길 34,128.168944824054,38.0636153565589,정좌표
45,344,정선군보건소,강원도 정선군 정선읍 녹송로 33,128.6714873397,37.3800948538669,정좌표
46,345,근로복지공단정선병원,강원도 정선군 정선읍 봉양1길 146,128.659155303557,37.3827875349691,인근좌표
47,346,정선군립병원,강원도 정선군 사북읍 지장천로 727,128.826504395481,37.2257639596876,정좌표
48,347,철원군보건소,강원도 철원군 갈말읍 군탄리 960-2,127.302829109745,38.148204023517,정좌표
49,348,철원병원,강원도 철원군 갈말읍 명성로 208,127.308447701655,38.1501567743349,정좌표
50,349,춘천시보건소,강원도 춘천시 중앙로3가 67,127.720496233891,37.8756149601915,정좌표
51,350,강원대학교병원,강원도 춘천시 백령로 156,127.743933195457,37.8743460552126,정좌표
52,351,한림대학교춘천성심병원,강원도 춘천시 삭주로 77,127.740807591187,37.8841328377117,정좌표
53,352,태백시보건소,강원도 태백시 황지동 20-8,128.99244855462,37.1765397737607,정좌표
54,353,근로복지공단태백병원,강원도 태백시 보드미길8,129.003473433995,37.104257499246,정좌표
55,354,홍천군보건소,강원도 홍천군 홍천읍 희망리 350 홍천군보건소,127.876795024627,37.6901098978932,정좌표
56,355,홍천아산병원,강원도 홍천군 산림공원 1길 17,127.895431979564,37.6911057638624,정좌표
57,356,횡성군보건소,강원도 횡성군 횡성읍 읍하리 598 횡성보건소,127.984343594546,37.4871854298153,정좌표
58,357,횡성대성병원,강원도 횡성군 횡성읍 횡성로275,127.979937632488,37.4784170794404,정좌표
59,358,평창군보건의료원,강원도 평창군 평창읍 노성로 11 평창군보건의료원,128.390752020213,37.368944761367,정좌표
60,359,화천군보건의료원,강원도 화천군 화천읍 강변로 111,127.709120538308,38.1073413275096,정좌표
61,360,괴산군보건소,충청북도 괴산군 괴산읍 동부리 641 괴산군보건소,127.796332115895,36.80794829488,정좌표
62,361,괴산성모병원,충청북도 괴산군 괴산읍 임꺽정로 116,127.784280391851,36.8154206926202,정좌표
63,362,단양군보건소,충청북도 단양군 단양읍 삼봉로 53,128.350276846751,36.9816408193658,정좌표
64,363,단양군립노인요양병원,충청북도 단양군 단양읍 별곡6길 10,128.368448305169,36.9869729408652,정좌표
65,364,보은군보건소,충청북도 보은군 보은읍 동광길 50,127.716184112823,36.4864565992527,정좌표
66,365,보은한양병원,충청북도 보은군 보은읍 보은로 102,127.718371267507,36.4833367858292,정좌표
67,366,영동군보건소,충청북도 영동군 영동읍 매천리 444-1,127.776114811614,36.1685402530982,정좌표
68,367,영동병원,충청북도 영동군 영동읍 대학로 106,127.781118467788,36.1854411724916,정좌표
69,368,옥천군보건소,"충청북도 옥천군 옥천읍 삼양로 8길 10, 옥천군보건소",127.570336421908,36.3043199674474,정좌표
70,369,옥천성모병원,충청북도 옥천군 옥천읍 성왕로 1195,127.571662615924,36.3135206451227,정좌표
71,370,음성군보건소,충청북도 음성군 음성읍 읍내리 406-4,127.688817233664,36.9285322745093,정좌표
72,371,금왕태성병원,충청북도 음성군 금왕읍 음성로1230번길 10,127.598547115794,36.9975265438823,정좌표
73,372,제천시보건소,충청북도 제천시 청전동 110,128.215861769824,37.1489629262157,정좌표
74,373,제천 서울병원,충청북도 제천시 숭문로 57,128.205666766095,37.1387451060213,정좌표
75,374,명지병원(제천),충청북도 제천시 내토로 991,128.233575960925,37.1635568787257,정좌표
76,375,증평군보건소,충청북도 증평군 증평읍 내성리 57-2 증평군보건소,127.586608682259,36.7743789531003,정좌표
77,376,진천군보건소,충청북도 진천군 진천읍 벽암리 570 진천군보건소 본관,127.439519664178,36.8605548491805,정좌표
78,377,건명의료재단 진천성모병원,충북진천읍 중앙북로 36,127.440730823101,36.8582454077837,정좌표
79,378,청주시상당보건소,충청북도 청주시 상당구 남일면 단재로 480,127.50476570395,36.5880770847395,정좌표
80,379,청주한국병원,충청북도 청주시 상당구 단재로 106,127.496126987017,36.6201638669051,정좌표
81,380,청주효성병원,충청북도 청주시 상당구 쇠내로 16,127.495620693973,36.6243254455414,정좌표
82,381,청주시흥덕보건소,충청북도 청주시 흥덕구 비하동(강서제1동) 792 흥덕구 보건소 흥덕보건소,127.426513522953,36.630078936228,정좌표
83,382,한마음의료재단하나병원,충청북도 청주시 흥덕구 2순환로 1262,127.430193110225,36.6235928924975,정좌표
84,383,베스티안병원,충청북도 흥덕구 오송읍 오송생명1로 191,127.321640885247,36.636429866991,정좌표
85,384,청주시서원보건소,충청북도 청주시 서원구 사직동(사직1동) 888 서원구청 지하1층 서원보건소,127.469854728194,36.6372396559975,정좌표
86,385,충청북도 청주의료원,충청북도 청주시 서원구 흥덕로 48,127.474020620719,36.6406611874727,정좌표
87,386,충주시보건소,충청북도 충주시 문화동 1655 충주시 건강복지타운 충주시 보건소,127.927978816224,36.9712655253042,정좌표
88,387,건국대학교충주병원,충청북도 충주시 국원대로82,127.928811688598,36.9790142987409,정좌표
89,388,충주의료원,충청북도 충주시 안림로239-50,127.970403499248,36.9793142670823,정좌표
90,389,청주시청원보건소,충청북도 청주시 청원구 오창읍 각리 639-1,127.431127374738,36.7100848111945,정좌표
91,390,청주성모병원,충북청주시 청원구 주성로173-19,127.486334590798,36.6742213887618,정좌표
92,391,계룡시보건소,충청남도 계룡시 금암동 10-5 계룡시보건소,127.250183391024,36.2731157591738,정좌표
93,392,공주시보건소,충청남도 공주시 봉황로 123,127.120656547392,36.4571175023194,정좌표
94,393,공주의료원,충청남도 공주시 무령로 77,127.109495335973,36.4588777853197,정좌표
95,394,금산군보건소,충청남도 금산군 금산읍 중도리 203-1 금산군보건소,127.49148572399,36.1129851019759,정좌표
96,395,논산시보건소,충청남도 논산시 관촉동(취암동) 327-2,127.102532936522,36.195572213443,정좌표
97,396,의료법인백제병원,충청남도 논산시 시민로294번길 14,127.093888302657,36.1919680543451,정좌표
98,397,당진시보건소,충청남도 당진시 시청1로,126.642350427223,36.8910184298177,인근좌표
99,398,당진종합병원,충청남도 당진시 반촌로 5-15,126.683788374107,36.9045308137213,정좌표
100,399,보령시보건소,충청남도 보령시 남포면 보령남로 234,126.601558933048,36.3243839840369,정좌표
